lat,lon,date_iso,date,value,location,state,data_type
47.6062,-122.3321,2025-10-03T12:00:00Z,1759492800,3.38,Seattle,WA,uv_index
40.7128,-74.006,2025-10-03T12:00:00Z,1759492800,5.22,New York,NY,uv_index
34.0522,-118.2437,2025-10-03T12:00:00Z,1759492800,6.39,Los Angeles,CA,uv_index
41.8781,-87.6298,2025-10-03T12:00:00Z,1759492800,5.0,Chicago,IL,uv_index
29.7604,-95.3698,2025-10-03T12:00:00Z,1759492800,7.85,Houston,TX,uv_index
